number,address,lat,lon,mon,tue,wed,thu,fri,sat,sun
1,"CHISINAU, CREANGA ION, 78",47.027618,28.793996,08:00–23:00,08:00–23:00,08:00–23:00,08:00–23:00,08:00–23:00,08:00–23:00,08:00–23:00
2,"CHISINAU, MIRCEA CEL BATRIN, 12, 2",47.043707,28.89106,08:00–23:00,08:00–23:00,08:00–23:00,08:00–23:00,08:00–23:00,08:00–23:00,08:00–23:00
3,"CHISINAU, TRAIAN, 23, 3",46.978512,28.846224,08:00–23:00,08:00–23:00,08:00–23:00,08:00–23:00,08:00–23:00,08:00–23:00,08:00–23:00
4,"CHISINAU, MOSCOVA, 10, 1",47.04933,28.863896,08:00–23:00,08:00–23:00,08:00–23:00,08:00–23:00,08:00–23:00,08:00–23:00,08:00–23:00
5,"CHISINAU, GHIBU ONISIFOR, 7, 2",47.036535,28.777654,08:00–22:00,08:00–22:00,08:00–22:00,08:00–22:00,08:00–22:00,08:00–22:00,08:00–22:00
6,"CHISINAU, TITULESCU NICOLAE, 47",46.993985,28.868087,08:00–23:00,08:00–23:00,08:00–23:00,08:00–23:00,08:00–23:00,08:00–23:00,08:00–22:00
7,"CHISINAU, CANTEMIR DIMITRIE, 9",47.018518,28.851857,08:00–22:00,08:00–22:00,08:00–22:00,08:00–22:00,08:00–22:00,08:00–22:00,08:00–22:00
8,"EINETI, 31 AUGUST 1989, 14",47.027199,28.846911,08:00–23:00,08:00–23:00,08:00–23:00,08:00–23:00,08:00–23:00,08:00–23:00,08:00–22:00
9,"CHISINAU, BASARAB MATEI, 5, 1",47.05491,28.868602,08:00–23:00,08:00–23:00,08:00–23:00,08:00–23:00,08:00–23:00,08:00–23:00,09:00–22:00
10,"CHISINAU, STUDENTILOR, 2, 2",47.062599,28.849956,08:00–22:00,08:00–22:00,08:00–22:00,08:00–22:00,08:00–22:00,08:00–22:00,08:00–22:00
11,"SOROCA, G. VIERU, 1",48.156027,28.303283,08:00–23:00,08:00–23:00,08:00–23:00,08:00–23:00,08:00–23:00,08:00–23:00,08:00–22:00
12,"CHISINAU, MARIA DRAGAN, 4, 1",47.029536,28.88365,08:00–22:00,08:00–22:00,08:00–22:00,08:00–22:00,08:00–22:00,08:00–22:00,08:00–22:00
13,"CAUSENI, STR. IURII GAGARIN, 20",46.651061,29.406004,08:00–22:00,08:00–22:00,08:00–22:00,08:00–22:00,08:00–22:00,08:00–22:00,08:00–22:00
14,"TELENESTI, 8 MARTIE",47.505329,28.367708,08:00–22:00,08:00–22:00,08:00–22:00,08:00–22:00,08:00–22:00,08:00–22:00,08:00–22:00
15,"CHISINAU, MIRCEA CEL BATRIN, 11, 6",47.04,28.891163,08:00–23:00,08:00–23:00,08:00–23:00,08:00–23:00,08:00–23:00,08:00–23:00,08:00–23:00
16,"CHISINAU, ALBA-IULIA, 196, 4",47.039254,28.768566,08:00–23:00,08:00–23:00,08:00–23:00,08:00–23:00,08:00–23:00,08:00–23:00,08:00–23:00
17,"BALTI, BULGARA, 136",47.789295,27.896029,08:00–22:00,08:00–22:00,08:00–22:00,08:00–22:00,08:00–22:00,08:00–22:00,08:00–22:00
18,"GLODENI, SUVERANITATII, 6",47.773402,27.516187,08:00–22:00,08:00–22:00,08:00–22:00,08:00–22:00,08:00–22:00,08:00–22:00,08:00–22:00
19,"BASARABEASCA, K MARX, 63",46.33199,28.963206,08:00–22:00,08:00–22:00,08:00–22:00,08:00–22:00,08:00–22:00,08:00–22:00,08:00–22:00
20,"CHISINAU, DOMENIUC, 12",47.056262,28.891907,08:00–23:00,08:00–23:00,08:00–23:00,08:00–23:00,08:00–23:00,08:00–23:00,08:00–23:00
21,"CHISINAU, VOLUNTARILOR, 9",47.007278,28.893346,08:00–22:00,08:00–22:00,08:00–22:00,08:00–22:00,08:00–22:00,08:00–22:00,08:00–22:00
22,"VADUL LUI VODA, STEFAN CEL MARE SI SFINT, 38",47.088355,29.079643,08:00–22:00,08:00–22:00,08:00–22:00,08:00–22:00,08:00–22:00,08:00–22:00,08:00–22:00
23,"CHISINAU, TESTEMITEANU NICOLAE, 39",46.990342,28.827236,08:00–23:00,08:00–23:00,08:00–23:00,08:00–23:00,08:00–23:00,08:00–22:00,08:00–22:00
24,"CHISINAU, MUNCESTI, 402",46.982014,28.896812,08:00–23:00,08:00–23:00,08:00–23:00,08:00–23:00,08:00–23:00,08:00–23:00,08:00–22:00
25,"CHISINAU, MIORITA, 6",46.997269,28.80823,08:00–23:00,08:00–23:00,08:00–23:00,08:00–23:00,08:00–23:00,08:00–23:00,09:00–23:00
26,"RISCANI, INDEPENDENTEI, 32",47.952022,27.560856,08:00–22:00,08:00–22:00,08:00–22:00,08:00–22:00,08:00–22:00,08:00–22:00,08:00–22:00
27,"STAUCENI, MATEEVICI ALEXIE, 9",47.10712,28.863527,08:00–23:00,08:00–22:00,08:00–22:00,08:00–22:00,08:00–22:00,08:00–22:00,08:00–22:00
28,"TARACLIA, LENIN, 136",45.895974,28.668119,08:00–22:00,08:00–22:00,08:00–22:00,08:00–22:00,08:00–22:00,08:00–22:00,08:00–22:00
29,"COMRAT, LENINA, 201",46.29732,28.656259,08:00–23:00,08:00–23:00,08:00–23:00,08:00–23:00,08:00–23:00,08:00–23:00,08:00–23:00
30,"CEADIR - LUNGA, LENINA, 79",46.058803,28.822423,08:00–22:00,08:00–22:00,08:00–22:00,08:00–22:00,08:00–22:00,08:00–22:00,08:00–22:00
31,"CHISINAU, ALBA-IULIA, 204",47.041748,28.763912,08:00–23:00,08:00–23:00,08:00–23:00,08:00–23:00,08:00–23:00,08:00–23:00,08:00–23:00
32,"DURLESTI, VLADIMIRESCU TUDOR, 204",47.027098,28.773474,08:00–23:00,08:00–23:00,08:00–23:00,08:00–23:00,08:00–23:00,08:00–23:00,08:00–23:00
33,"CHISINAU, GRENOBLE, 128",46.981484,28.838635,08:00–23:00,08:00–23:00,08:00–23:00,08:00–23:00,08:00–23:00,08:00–23:00,08:00–23:00
34,"CHISINAU, DACIA, 16",46.989031,28.852394,08:00–23:00,08:00–23:00,08:00–23:00,08:00–23:00,08:00–23:00,08:00–23:00,08:00–22:00
35,"CHISINAU, CREANGA ION, 32",47.032025,28.804177,08:00–23:00,08:00–23:00,08:00–23:00,08:00–23:00,08:00–23:00,08:00–23:00,08:00–22:00
36,"CHISINAU, DECEBAL, 59",47.000556,28.860422,08:00–23:00,08:00–23:00,08:00–23:00,08:00–23:00,08:00–23:00,08:00–23:00,08:00–23:00
37,"CHISINAU, SCIUSEV ALEXEI, 98",47.024279,28.821611,08:00–23:00,08:00–23:00,08:00–23:00,08:00–23:00,08:00–23:00,08:00–23:00,08:00–22:00
38,"CHISINAU, MIORITA, 11",46.992406,28.819441,08:00–23:00,08:00–23:00,08:00–23:00,08:00–23:00,08:00–23:00,08:00–23:00,08:00–23:00
39,"CHISINAU, COSTIN MIRON, 65",47.050249,28.866926,08:00–22:00,08:00–22:00,08:00–22:00,08:00–22:00,08:00–22:00,08:00–22:00,09:00–22:00
40,"UNGHENI, NATIONALA, 15",47.207667,27.800968,09:00–23:00,09:00–23:00,09:00–23:00,09:00–23:00,09:00–23:00,09:00–23:00,09:00–23:00
41,"CHISINAU, INDEPENDENTEI, 4, 1",46.985429,28.844508,08:00–23:00,08:00–23:00,08:00–23:00,08:00–23:00,08:00–23:00,08:00–23:00,08:00–23:00
42,"CHISINAU, SARMIZEGETUSA, 35, 1",46.986753,28.873758,08:00–23:00,08:00–23:00,08:00–23:00,08:00–23:00,08:00–23:00,08:00–23:00,08:00–23:00
43,"CHISINAU, IAZULUI, 4, 1",47.057502,28.846855,08:00–23:00,08:00–23:00,08:00–23:00,08:00–23:00,08:00–23:00,08:00–23:00,08:00–23:00
44,"CHISINAU, ALBISOARA, 80, 5",47.036752,28.827756,08:00–23:00,08:00–23:00,08:00–23:00,08:00–23:00,08:00–23:00,08:00–23:00,08:00–23:00
45,"CHISINAU, MIRCEA CEL BATRIN, 32, 10",47.04,28.891163,08:00–23:00,08:00–23:00,08:00–23:00,08:00–23:00,08:00–23:00,08:00–23:00,08:00–23:00
46,"STRASENI, STEFAN CEL MARE SI SFINT, 125",47.151308,28.614538,08:00–23:00,08:00–23:00,08:00–23:00,08:00–23:00,08:00–23:00,08:00–23:00,08:00–23:00
47,"CHISINAU, LUPU VASILE, 61, 5",47.021675,28.80101,08:00–22:00,08:00–22:00,08:00–22:00,08:00–22:00,08:00–22:00,08:00–22:00,08:00–22:00
48,"STRASENI, STEFAN CEL MARE SI SFINT, 26",47.151308,28.614538,08:00–23:00,08:00–23:00,08:00–23:00,08:00–23:00,08:00–23:00,08:00–23:00,08:00–23:00
49,"CHISINAU, VIERU GRIGORE, 18",47.031408,28.842934,08:00–22:00,08:00–22:00,08:00–22:00,08:00–22:00,08:00–22:00,08:00–22:00,08:00–22:00
50,"CHISINAU, TRANDAFIRILOR, 13, 1",46.99821,28.852977,08:00–23:00,08:00–23:00,08:00–23:00,08:00–23:00,08:00–23:00,08:00–23:00,08:00–22:00
51,"CHISINAU, ZADNIPRU PETRU, 2, 1",47.043764,28.88292,08:00–23:00,08:00–23:00,08:00–23:00,08:00–23:00,08:00–23:00,08:00–23:00,08:00–23:00
52,"HINCESTI, CHISINAULUI, 10",46.830806,28.58906,08:00–22:00,08:00–22:00,08:00–22:00,08:00–22:00,08:00–22:00,08:00–22:00,08:00–22:00
53,"CHISINAU, CALEA IESILOR, 55",47.044327,28.787304,08:00–23:00,08:00–23:00,08:00–23:00,08:00–23:00,08:00–23:00,08:00–23:00,08:00–23:00
54,"CHISINAU, ALECSANDRI VASILE, 143",47.027199,28.846911,08:00–23:00,08:00–23:00,08:00–23:00,08:00–23:00,08:00–23:00,08:00–23:00,08:00–22:00
55,"CHISINAU, MUNCESTI, 388",46.984072,28.894697,08:00–22:00,08:00–22:00,08:00–22:00,08:00–22:00,08:00–22:00,08:00–22:00,08:00–22:00
56,"CHISINAU, DACIA, 44",46.976838,28.869463,08:00–23:00,08:00–23:00,08:00–23:00,08:00–23:00,08:00–23:00,08:00–23:00,08:00–22:00
57,"CRICOVA, CHISINAULUI, 95",47.138827,28.866697,08:00–23:00,08:00–23:00,08:00–23:00,08:00–23:00,08:00–23:00,08:00–23:00,Închis
58,"CAUSENI, EMINESCU MIHAI, 14",46.64484,29.409334,08:00–23:00,08:00–23:00,08:00–23:00,08:00–23:00,08:00–23:00,08:00–23:00,08:00–23:00
59,"CHISINAU, DRAGAN MARIA, 11",47.022551,28.88357,08:00–23:00,08:00–23:00,08:00–23:00,08:00–23:00,08:00–23:00,08:00–23:00,08:00–22:00
60,"CHISINAU, MACILOR, 11",47.033375,28.865947,08:00–23:00,08:00–23:00,08:00–23:00,08:00–23:00,08:00–23:00,08:00–22:00,08:00–22:00
61,"CIMISLIA, BARBU LAUTARU, 2",46.525249,28.783688,08:00–22:00,08:00–22:00,08:00–22:00,08:00–22:00,08:00–22:00,08:00–22:00,08:00–22:00
62,"FLORESTI, 31 AUGUST, 55",47.893939,28.298458,08:00–23:00,08:00–23:00,08:00–23:00,08:00–23:00,08:00–23:00,08:00–23:00,08:00–22:00
63,"FALESTI, MOLDOVEI, 14",47.573562,27.708399,08:00–22:00,08:00–22:00,08:00–22:00,08:00–22:00,08:00–22:00,08:00–22:00,08:00–22:00
64,"CHISINAU, RENASTERII NATIONALE, 12",47.03627,28.850369,08:00–23:00,08:00–23:00,08:00–23:00,08:00–23:00,08:00–23:00,08:00–23:00,08:00–22:00
65,"SINGEREI, INDEPENDENTEI, 132",47.633734,28.149294,08:00–22:00,08:00–22:00,08:00–22:00,08:00–22:00,08:00–22:00,08:00–22:00,08:00–22:00
66,"DONDUSENI, INDEPENDENTEI, 15",48.234414,27.616015,08:00–22:00,08:00–22:00,08:00–22:00,08:00–22:00,08:00–22:00,08:00–22:00,08:00–22:00
67,"REZINA, 27 AUGUST, 15",47.748532,28.957868,08:00–22:00,08:00–22:00,08:00–22:00,08:00–22:00,08:00–22:00,08:00–22:00,08:00–22:00
68,"SINGERA, CHISINAULUI, 12",46.919808,28.971462,08:00–23:00,08:00–23:00,08:00–23:00,08:00–23:00,08:00–23:00,08:00–23:00,08:00–23:00
69,"CRIULENI, STEFAN CEL MARE, 23",47.206946,29.159855,08:00–22:00,08:00–22:00,08:00–22:00,08:00–22:00,08:00–22:00,08:00–22:00,08:00–22:00
70,"CHISINAU, DACIA, 62",46.976838,28.869463,08:00–23:00,08:00–23:00,08:00–23:00,08:00–23:00,08:00–23:00,08:00–23:00,08:00–22:00
71,"CHISINAU, MIRON COSTIN, 13, 1",47.050249,28.866926,08:00–22:00,08:00–22:00,08:00–22:00,08:00–22:00,08:00–22:00,08:00–22:00,09:00–22:00
72,"BALTI, KIEV, 6",47.784259,27.925075,08:00–22:00,08:00–22:00,08:00–22:00,08:00–22:00,08:00–22:00,08:00–22:00,08:00–22:00
73,"BALTI, CALEA IESILOR, 112",47.755082,27.883015,08:00–22:00,08:00–22:00,08:00–22:00,08:00–22:00,08:00–22:00,08:00–22:00,08:00–22:00
74,"CHISINAU, MUNCESTI, 162",47.002543,28.869055,08:00–22:00,08:00–22:00,08:00–22:00,08:00–22:00,08:00–22:00,08:00–22:00,08:00–23:00
75,"CHISINAU, GHIBU ONISIFOR, 5",47.036535,28.777654,08:00–22:00,08:00–22:00,08:00–22:00,08:00–22:00,08:00–22:00,08:00–22:00,08:00–22:00
76,"CHISINAU, MOSCOVA, 1, 3",47.04933,28.863896,08:00–23:00,08:00–23:00,08:00–23:00,08:00–23:00,08:00–23:00,08:00–23:00,08:00–23:00
77,"CHISINAU, GINTA LATINA, 3, 1",47.035053,28.882221,08:00–22:00,08:00–22:00,08:00–22:00,08:00–22:00,08:00–22:00,08:00–22:00,08:00–22:00
78,"NISPORENI, SUVERANITATII, 15",47.080914,28.183114,08:00–23:00,08:00–23:00,08:00–23:00,08:00–23:00,08:00–23:00,08:00–23:00,08:00–23:00
79,"UNGHENI, BERNARDAZZI, 15",47.219867,27.797489,08:00–22:00,08:00–22:00,08:00–22:00,08:00–22:00,08:00–22:00,08:00–22:00,08:00–22:00
80,"CHISINAU, TRAIAN, 22",46.979329,28.846159,08:00–23:00,08:00–23:00,08:00–23:00,08:00–23:00,08:00–23:00,08:00–23:00,08:00–23:00
81,"CHISINAU, LUPU VASILE, 59, 4",47.021675,28.80101,08:00–22:00,08:00–22:00,08:00–22:00,08:00–22:00,08:00–22:00,08:00–22:00,08:00–22:00
82,"CHISINAU, BOTEV HRISTO, 17",46.988381,28.847789,,,,,,,
83,"CHISINAU, CUZA-VODA, 24",46.980064,28.856966,08:00–22:00,08:00–22:00,08:00–22:00,08:00–22:00,08:00–22:00,08:00–22:00,08:00–22:00
84,"IALOVENI, ALEXANDRU CEL BUN, 43",46.947457,28.774792,08:00–22:00,08:00–22:00,08:00–22:00,08:00–22:00,08:00–22:00,08:00–22:00,08:00–22:00
85,"TRUSENI, 27 AUGUST, 67",47.072377,28.685069,08:00–23:00,08:00–23:00,08:00–23:00,08:00–23:00,08:00–23:00,08:00–22:00,08:00–22:00
86,"CALARASI, ALEXANDRU CEL BUN, 100",47.249279,28.310618,08:00–22:00,08:00–22:00,08:00–22:00,08:00–22:00,08:00–22:00,08:00–22:00,08:00–22:00
87,"MAGDACESTI, MAGDACESTI /SATUL/",47.144564,28.835548,08:00–23:00,08:00–23:00,08:00–23:00,08:00–23:00,08:00–23:00,08:00–23:00,08:00–23:00
88,"BRICENI, INDEPENDENTEI, 18, o",48.359493,27.089151,08:00–22:00,08:00–22:00,08:00–22:00,08:00–22:00,08:00–22:00,08:00–22:00,08:00–22:00
89,"DURLESTI, CARTUS, 44, a",47.007017,28.764377,08:00–22:00,08:00–22:00,08:00–22:00,08:00–22:00,08:00–22:00,08:00–22:00,08:00–22:00
90,"CAHUL, INDEPENDENTEI, 3",45.904327,28.193203,08:00–23:00,08:00–23:00,08:00–23:00,08:00–23:00,08:00–23:00,08:00–23:00,08:00–23:00
91,"HINCESTI, CHISINAULUI, 19, B",46.833268,28.5983,08:00–22:00,08:00–22:00,08:00–22:00,08:00–22:00,08:00–22:00,08:00–22:00,08:00–22:00
92,"GRATIESTI, STEFAN CEL MARE SI SFINT, 2",47.090506,28.829367,08:00–22:00,08:00–22:00,08:00–22:00,08:00–22:00,08:00–22:00,08:00–22:00,08:00–22:00
93,"VATRA, STEFAN VODA, 60",47.075472,28.734754,08:00–23:00,08:00–23:00,08:00–23:00,08:00–23:00,08:00–23:00,08:00–23:00,08:00–23:00
94,"PERESECINA, PERESECINA /SATUL/",47.240665,28.763887,08:00–23:00,08:00–23:00,08:00–23:00,08:00–23:00,08:00–23:00,08:00–23:00,08:00–23:00
95,"BACIOI, INDEPENDENTEI, 64",46.910078,28.890863,08:00–22:00,08:00–22:00,08:00–22:00,08:00–22:00,08:00–22:00,08:00–22:00,08:00–22:00
96,"VARNITA, TIGHINA, 46",46.863213,29.476279,08:00–22:00,08:00–22:00,08:00–22:00,08:00–22:00,08:00–22:00,08:00–22:00,08:00–22:00
97,"CHISINAU, MUNCESTI, 330",46.990522,28.883473,08:00–23:00,08:00–23:00,08:00–23:00,08:00–23:00,08:00–23:00,08:00–23:00,08:00–23:00
98,"STRASENI, CHISINAU, 32",47.151308,28.614538,08:00–23:00,08:00–23:00,08:00–23:00,08:00–23:00,08:00–23:00,08:00–23:00,08:00–23:00
99,"BUBUIECI, BUBUIOC, 2",46.983712,28.93176,08:00–23:00,08:00–23:00,08:00–23:00,08:00–23:00,08:00–23:00,08:00–23:00,08:00–22:00
100,"CHISINAU, SOCOLENI, 7",47.061302,28.846551,08:00–23:00,08:00–23:00,08:00–23:00,08:00–23:00,08:00–23:00,08:00–23:00,08:00–23:00
101,"STAUCENI, STAMATI CONSTANTIN, 1",47.10712,28.863527,08:00–23:00,08:00–22:00,08:00–22:00,08:00–22:00,08:00–22:00,08:00–22:00,08:00–22:00
102,"ANENII NOI, CONCELIERII NATIONALE, 1",46.88393,29.234202,08:00–22:00,08:00–22:00,08:00–22:00,08:00–22:00,08:00–22:00,08:00–22:00,08:00–22:00
103,"FLORESTI, VICTORIEI, 4",47.893939,28.298458,08:00–23:00,08:00–23:00,08:00–23:00,08:00–23:00,08:00–23:00,08:00–23:00,08:00–22:00
104,"CHISINAU, PARIS, 47",47.030983,28.781183,08:00–23:00,08:00–23:00,08:00–23:00,08:00–23:00,08:00–23:00,08:00–23:00,08:00–23:00
105,"DROCHIA, GRIGORESCU NICOLAE, 21",48.037164,27.809105,08:00–22:00,08:00–22:00,08:00–22:00,08:00–22:00,08:00–22:00,08:00–22:00,08:00–22:00
106,"LEOVA, GORIKI MAXIM, 10",46.478709,28.252852,08:00–22:00,08:00–22:00,08:00–22:00,08:00–22:00,08:00–22:00,08:00–22:00,08:00–22:00
107,"ORHEI, STEFAN CEL MARE, 8",47.375678,28.818144,08:00–23:00,08:00–23:00,08:00–23:00,08:00–23:00,08:00–23:00,08:00–23:00,08:00–23:00
108,"CHISINAU, SAT. BUDESTI, STR. CHISINAULUI",47.063746,28.972311,08:00–22:00,08:00–22:00,08:00–22:00,08:00–22:00,08:00–22:00,08:00–22:00,08:00–22:00
109,"UNGHENI, STEFAN CEL MARE, 189",47.184991,27.810152,08:00–22:00,08:00–22:00,08:00–22:00,08:00–22:00,08:00–22:00,08:00–22:00,08:00–22:00
110,"DURLESTI, NICOLAE DIMO, 86",47.007017,28.764377,08:00–22:00,08:00–22:00,08:00–22:00,08:00–22:00,08:00–22:00,08:00–22:00,08:00–22:00
111,"COMRAT, TRETIACOVA, 37a",46.30087,28.652188,08:00–22:00,08:00–22:00,08:00–22:00,08:00–22:00,08:00–22:00,08:00–22:00,08:00–22:00
112,"DUMBRAVA, SOS BALCANI",47.041551,28.751866,08:00–23:00,08:00–23:00,08:00–23:00,08:00–23:00,08:00–23:00,08:00–23:00,08:00–23:00
113,"ORHEI, CONSTANTIN NEGRUZZI, 82/a",47.397685,28.81486,08:00–22:00,08:00–22:00,08:00–22:00,08:00–22:00,08:00–22:00,08:00–22:00,08:00–22:00
114,"IALOVENI, ALEXAND CEL BUNM, 30",46.954374,28.76956,08:00–23:00,08:00–23:00,08:00–23:00,08:00–23:00,08:00–23:00,08:00–23:00,08:00–23:00
115,"CRICOVA, CHISINAULUI, 80",47.138827,28.866697,08:00–23:00,08:00–23:00,08:00–23:00,08:00–23:00,08:00–23:00,08:00–23:00,Închis
116,"STEFAN VODA, 31 AUGUST, 1, 7",46.523064,29.667477,08:00–22:00,08:00–22:00,08:00–22:00,08:00–22:00,08:00–22:00,08:00–22:00,08:00–22:00
117,"GHIDIGHICI, VICTORIEI, 10, 1",47.086679,28.771478,08:00–22:00,08:00–22:00,08:00–22:00,08:00–22:00,08:00–22:00,08:00–22:00,08:00–22:00
118,"CHISINAU, GRIGORE VIERU, 9",47.030355,28.839821,08:00–23:00,08:00–23:00,08:00–23:00,08:00–23:00,08:00–23:00,08:00–23:00,08:00–23:00
119,"IALOVENI SOS. HINCESTI, 368",46.960734,28.750977,08:00–22:00,08:00–22:00,08:00–22:00,08:00–22:00,08:00–22:00,08:00–22:00,08:00–22:00
120,"CHISINAU, STR. PIETRARILOR 2/1",47.000626,28.804039,08:00–22:00,08:00–22:00,08:00–22:00,08:00–22:00,08:00–22:00,08:00–22:00,08:00–22:00
121,"IALOVENI, COM. COSTESTI, STEFAN CEL MARE, 110",46.87323,28.762689,08:00–22:00,08:00–22:00,08:00–22:00,08:00–22:00,08:00–22:00,08:00–22:00,08:00–22:00
122,"DROCHIA,STR. INDEPENDENTEI 11",48.031278,27.814333,08:00–22:00,08:00–22:00,08:00–22:00,08:00–22:00,08:00–22:00,08:00–22:00,08:00–22:00
123,"CONGAZ, STR. LENIN 32",46.112097,28.607108,08:00–22:00,08:00–22:00,08:00–22:00,08:00–22:00,08:00–22:00,08:00–22:00,08:00–22:00
124,"COM. CIORESCU, STR. ALECSANDRU CEL BUN, 23",47.124312,28.891221,08:00–22:00,08:00–22:00,08:00–22:00,08:00–22:00,08:00–22:00,08:00–22:00,08:00–22:00
125,"CHIȘINĂU, COM. STĂUCENI, SAT. STĂUCENI, STR. ALEXEI MATEEVICI 91/A",47.024279,28.821611,08:00–23:00,08:00–23:00,08:00–23:00,08:00–23:00,08:00–23:00,08:00–23:00,08:00–22:00
126,"CHISINAU, STR.I.BUZDUGAN 2/A",47.037713,28.764778,08:00–22:00,08:00–22:00,08:00–22:00,08:00–22:00,08:00–22:00,08:00–22:00,08:00–22:00
127,"CRIULENI, STR. 31 AUGUST 68",47.216735,29.163333,08:00–22:00,08:00–22:00,08:00–22:00,08:00–22:00,08:00–22:00,08:00–22:00,08:00–22:00
128,"COJUSNA, STR. MIHAI VITEAZU, 146",47.092267,28.662248,08:00–22:00,08:00–22:00,08:00–22:00,08:00–22:00,08:00–22:00,08:00–22:00,08:00–22:00
129,"CHISINAU, STR. ALECU RUSSO, 18/3",47.038655,28.882234,08:00–23:00,08:00–23:00,08:00–23:00,08:00–23:00,08:00–23:00,08:00–23:00,08:00–23:00
130,"CHISINAU, MIRCEA CEL BATRIN, 6",47.04,28.891163,08:00–23:00,08:00–23:00,08:00–23:00,08:00–23:00,08:00–23:00,08:00–23:00,08:00–23:00
131,"CHISINAU, SOS. HINCESTI, 20",47.006532,28.824481,08:00–23:00,08:00–23:00,08:00–23:00,08:00–23:00,08:00–23:00,08:00–23:00,08:00–23:00
132,"CHISINAU, BD. TRAIAN, 13/1",46.982603,28.852808,08:00–23:00,08:00–23:00,08:00–23:00,08:00–23:00,08:00–23:00,08:00–23:00,08:00–23:00
133,"CHISINAU, STR. NICOLAE COSTIN, 44/1",47.035633,28.788271,08:00–23:00,08:00–23:00,08:00–23:00,08:00–23:00,08:00–23:00,08:00–23:00,08:00–23:00
134,"CHISINAU, STR. CUZA VODA, 44",46.974401,28.848486,08:00–22:00,08:00–22:00,08:00–22:00,08:00–22:00,08:00–22:00,08:00–22:00,08:00–22:00
135,"CHISINAU, STR. VADUL LUI VODA, 7/1",47.029504,28.879549,08:00–23:00,08:00–23:00,08:00–23:00,08:00–23:00,08:00–23:00,08:00–23:00,08:00–23:00
136,"CALARASI, STR. EMINESCU, 73",47.247749,28.327801,08:00–22:00,08:00–22:00,08:00–22:00,08:00–22:00,08:00–22:00,08:00–22:00,08:00–22:00
137,"ORHEI, STR. VASILIE LUPU, 36/1",47.376385,28.823678,08:00–22:00,08:00–22:00,08:00–22:00,08:00–22:00,08:00–22:00,08:00–22:00,08:00–22:00
138,"CHISINAU, STR. DOINA SI ION ALDEA-TEODOROVICI",47.029932,28.794256,08:00–22:00,08:00–22:00,08:00–22:00,08:00–22:00,08:00–22:00,08:00–22:00,08:00–22:00
139,"CAHUL, STR. ALEXEI MATEEVICI, 12V",45.906537,28.197309,08:00–22:00,08:00–22:00,08:00–22:00,08:00–22:00,08:00–22:00,08:00–22:00,08:00–22:00
140,"CRICOVA, STR. CHISINAULUI, 25",47.121264,28.866985,08:00–22:00,08:00–22:00,08:00–22:00,08:00–22:00,08:00–22:00,08:00–22:00,08:00–22:00
141,"CHISINAU, STR. CALEA MOSILOR, 4",47.025447,28.861025,08:00–22:00,08:00–22:00,08:00–22:00,08:00–22:00,08:00–22:00,08:00–22:00,08:00–22:00
142,"VADUL LUI VODA, STR. STEFAN CEL MARE 2/2",47.086285,29.085494,08:00–22:00,08:00–22:00,08:00–22:00,08:00–22:00,08:00–22:00,08:00–22:00,08:00–22:00
143,"CHISINAU, BD. STEFAN CEL MARE, 6/1",47.014785,28.848255,10:00–22:00,10:00–22:00,10:00–22:00,10:00–22:00,10:00–22:00,10:00–22:00,10:00–22:00
144,"CHISINAU, STR. DUMITRU RISCANU, 11",47.036786,28.865155,08:00–23:00,08:00–23:00,08:00–23:00,08:00–23:00,08:00–23:00,08:00–23:00,08:00–23:00
145,"VULCANEST, STR. GHERTENE, 5",47.027199,28.846911,08:00–23:00,08:00–23:00,08:00–23:00,08:00–23:00,08:00–23:00,08:00–23:00,08:00–22:00
146,"CHISINAU, STR. SPICULUI, 6",46.995994,28.785691,08:00–22:00,08:00–22:00,08:00–22:00,08:00–22:00,08:00–22:00,08:00–22:00,08:00–22:00
147,"CANTEMIR, STR. BASARABIE, 6",46.280121,28.198338,08:00–22:00,08:00–22:00,08:00–22:00,08:00–22:00,08:00–22:00,08:00–22:00,08:00–22:00
148,"NISPORENI, COM. VARZARESTI",47.085401,28.166164,08:00–22:00,08:00–22:00,08:00–22:00,08:00–22:00,08:00–22:00,08:00–22:00,08:00–22:00
149,"CALARASI, STR. MIHAI EMINESCU, 23",47.247749,28.327801,08:00–22:00,08:00–22:00,08:00–22:00,08:00–22:00,08:00–22:00,08:00–22:00,08:00–22:00
150,"CHISINAU, SAT. COLONITA",47.048471,28.925959,08:00–22:00,08:00–22:00,08:00–22:00,08:00–22:00,08:00–22:00,08:00–22:00,08:00–22:00
151,"CHISINAU, STR. PARIS, 34/6",47.030983,28.781183,08:00–23:00,08:00–23:00,08:00–23:00,08:00–23:00,08:00–23:00,08:00–23:00,08:00–23:00
152,"CHISINAU, BD. BANULESCU BODONI, 57",47.02931,28.835975,08:00–22:00,08:00–22:00,08:00–22:00,08:00–22:00,08:00–22:00,08:00–22:00,08:00–22:00
153,"CHISINAU, STR. ALBA IULIA, 7/1",47.029003,28.788014,08:00–22:00,08:00–22:00,08:00–22:00,08:00–22:00,08:00–22:00,08:00–22:00,08:00–22:00
154,"BALTI, STR. STEFAN CEL MARE, 8/1",47.767443,27.937973,08:00–22:00,08:00–22:00,08:00–22:00,08:00–22:00,08:00–22:00,08:00–22:00,08:00–22:00
155,"TVARDITA, IURII GAGARIN, 23",46.152969,28.962693,08:00–22:00,08:00–22:00,08:00–22:00,08:00–22:00,08:00–22:00,08:00–22:00,08:00–22:00
156,"CEADIR-LUNGA, STR. IUBILEINAIA, 1A",46.058803,28.822423,08:00–22:00,08:00–22:00,08:00–22:00,08:00–22:00,08:00–22:00,08:00–22:00,08:00–22:00
157,"CAUSENI, STR. UNIRII, 1A",46.655613,29.40821,08:00–22:00,08:00–22:00,08:00–22:00,08:00–22:00,08:00–22:00,08:00–22:00,08:00–22:00
158,"BALTI, STR. BULGARA, 120A",47.78622,27.899494,08:00–22:00,08:00–22:00,08:00–22:00,08:00–22:00,08:00–22:00,08:00–22:00,08:00–22:00
159,"CHISINAU, STR. INDEPENDENTEI, 3/1",46.983714,28.848471,08:00–22:00,08:00–22:00,08:00–22:00,08:00–22:00,08:00–22:00,08:00–22:00,08:00–22:00
160,"CHISINAU, STR. MARIA DRAGAN, 11A",47.022551,28.88357,08:00–23:00,08:00–23:00,08:00–23:00,08:00–23:00,08:00–23:00,08:00–23:00,08:00–22:00
161,"TRUSENI, STR. 27 AUGUST 1989, 2/2",47.07205,28.699202,08:00–22:00,08:00–22:00,08:00–22:00,08:00–22:00,08:00–22:00,08:00–22:00,08:00–22:00
162,"VORNICENI, STR. STEFAN CEL MARE",47.153263,28.427824,08:00–22:00,08:00–22:00,08:00–22:00,08:00–22:00,08:00–22:00,08:00–22:00,08:00–22:00
163,"HINCESTI, STR. CHISINAULUI, 3",46.830806,28.58906,08:00–22:00,08:00–22:00,08:00–22:00,08:00–22:00,08:00–22:00,08:00–22:00,08:00–22:00
164,"CAHUL, STR. MIHAI VITEAZUL, 47B",45.894361,28.205946,08:00–22:00,08:00–22:00,08:00–22:00,08:00–22:00,08:00–22:00,08:00–22:00,08:00–22:00
165,"CARPINENI, INDEPENDENTEI, 4/E",46.76342,28.347555,08:00–22:00,08:00–22:00,08:00–22:00,08:00–22:00,08:00–22:00,08:00–22:00,08:00–22:00
166,"CHISINAU, SOS. HINCESTI, 62A",47.002027,28.814531,08:00–22:00,08:00–22:00,08:00–22:00,08:00–22:00,08:00–22:00,08:00–22:00,08:00–22:00
167,"LIPCANI, STR. IURII GAGARIN, 2",48.263894,26.805448,08:00–22:00,08:00–22:00,08:00–22:00,08:00–22:00,08:00–22:00,08:00–22:00,08:00–22:00
168,"CAHUL, STEFAN CEL MARE SI SFINT, 29A",45.916246,28.215716,08:00–22:00,08:00–22:00,08:00–22:00,08:00–22:00,08:00–22:00,08:00–22:00,08:00–22:00
169,"SOROCA, STEFAN CEL MARE 46",48.16396,28.303467,08:00–22:00,08:00–22:00,08:00–22:00,08:00–22:00,08:00–22:00,08:00–22:00,08:00–22:00
170,"CAHUL, STEFAN CEL MARE, 111B",45.916246,28.215716,08:00–22:00,08:00–22:00,08:00–22:00,08:00–22:00,08:00–22:00,08:00–22:00,08:00–22:00
171,"BALTI, STR. STRII (COLT KIEV)",47.770826,27.930637,08:00–22:00,08:00–22:00,08:00–22:00,08:00–22:00,08:00–22:00,08:00–22:00,08:00–22:00
172,"CHISINAU, MIRCEA CEL BATRIN 39",47.04,28.891163,08:00–23:00,08:00–23:00,08:00–23:00,08:00–23:00,08:00–23:00,08:00–23:00,08:00–23:00
173,"CHISINAU, STR. MATEI BASARAB, 6",47.05491,28.868602,08:00–23:00,08:00–23:00,08:00–23:00,08:00–23:00,08:00–23:00,08:00–23:00,09:00–22:00
174,"CHISINAU, STR. SARMIZEGETUSA, 10",46.986753,28.873758,08:00–23:00,08:00–23:00,08:00–23:00,08:00–23:00,08:00–23:00,08:00–23:00,08:00–23:00
175,PÎRLITA,47.325053,27.89235,08:00–22:00,08:00–22:00,08:00–22:00,08:00–22:00,08:00–22:00,08:00–22:00,08:00–22:00
176,"CHETROSU, STR. CHISINAU 95, 002",46.920054,29.030823,08:00–22:00,08:00–22:00,08:00–22:00,08:00–22:00,08:00–22:00,08:00–22:00,08:00–22:00
177,"BALTI, STR. VASILIE LUPU, 1",47.753677,27.937632,08:00–22:00,08:00–22:00,08:00–22:00,08:00–22:00,08:00–22:00,08:00–22:00,08:00–22:00
178,"ANENII NOI, STR. CHISINAULUI, 45",46.882517,29.224925,08:00–22:00,08:00–22:00,08:00–22:00,08:00–22:00,08:00–22:00,08:00–22:00,08:00–22:00
179,"FALESTI, STR. MOLDOVA, 41",47.573562,27.708399,08:00–22:00,08:00–22:00,08:00–22:00,08:00–22:00,08:00–22:00,08:00–22:00,08:00–22:00
180,"BALTI, STR. SREFAN CEL MARE, 115",47.740818,27.876177,08:00–22:00,08:00–22:00,08:00–22:00,08:00–22:00,08:00–22:00,08:00–22:00,08:00–22:00
181,"CUPCINI, STR. CHISINAULUI, 25A",48.118364,27.383352,08:00–22:00,08:00–22:00,08:00–22:00,08:00–22:00,08:00–22:00,08:00–22:00,08:00–22:00
182,"CHISINAU, SOS. MUNCESTI, 631/1",46.948233,28.932468,08:00–22:00,08:00–22:00,08:00–22:00,08:00–22:00,08:00–22:00,08:00–22:00,08:00–22:00
183,"CHISINAU, STR. BUCOVINEI, 6",47.068274,28.880368,08:00–22:00,08:00–22:00,08:00–22:00,08:00–22:00,08:00–22:00,08:00–22:00,08:00–22:00
184,"BRICENI, STR. OLIMPICILOR, 13",48.359493,27.089151,08:00–22:00,08:00–22:00,08:00–22:00,08:00–22:00,08:00–22:00,08:00–22:00,08:00–22:00
185,"CORJEUTI, STR. STEFAN CEL MARE 37",48.213305,27.042548,08:00–22:00,08:00–22:00,08:00–22:00,08:00–22:00,08:00–22:00,08:00–22:00,08:00–22:00
186,"CHISINAU, STR. ARBORILOR, 21",47.004442,28.840673,10:00–22:00,10:00–22:00,10:00–22:00,10:00–22:00,10:00–22:00,10:00–22:00,10:00–22:00
187,"GIURGIULESTI, STR. PRIETENIEI, 8, OF 101",45.475986,28.207001,08:00–22:00,08:00–22:00,08:00–22:00,08:00–22:00,08:00–22:00,08:00–22:00,08:00–22:00
188,"OCNITA, STR. INDEPENDENTEI, 58/A",46.985429,28.844508,08:00–23:00,08:00–23:00,08:00–23:00,08:00–23:00,08:00–23:00,08:00–23:00,08:00–23:00
189,"EDINET, STR. INDEPENDENTEI, 45",48.172759,27.30354,08:00–22:00,08:00–22:00,08:00–22:00,08:00–22:00,08:00–22:00,08:00–22:00,08:00–22:00
190,"ORHEI, STR. SERGHEI LAZO",47.397685,28.81486,08:00–22:00,08:00–22:00,08:00–22:00,08:00–22:00,08:00–22:00,08:00–22:00,08:00–22:00
191,"EDINET, STR. SOSEAUA BUCOVINA, 94",48.165347,27.315473,08:00–22:00,08:00–22:00,08:00–22:00,08:00–22:00,08:00–22:00,08:00–22:00,08:00–22:00
192,"TELENESTI, STR. DACIA",47.509178,28.367601,08:00–22:00,08:00–22:00,08:00–22:00,08:00–22:00,08:00–22:00,08:00–22:00,08:00–22:00
193,"DROCHIA, STR. MITROPOLIT VARLAAM, 7/1",48.035454,27.806368,08:00–22:00,08:00–22:00,08:00–22:00,08:00–22:00,08:00–22:00,08:00–22:00,08:00–22:00
194,"BALTI, STR. STEFAN CEL MARE, 187",47.740818,27.876177,08:00–22:00,08:00–22:00,08:00–22:00,08:00–22:00,08:00–22:00,08:00–22:00,08:00–22:00
195,"PERESECINA, STR. MIHAI EMINESCU 187",47.265087,28.767479,08:00–22:00,08:00–22:00,08:00–22:00,08:00–22:00,08:00–22:00,08:00–22:00,08:00–22:00
196,"CODRU, STR. COSTIUJENI, 8/5A",46.977544,28.836479,08:00–22:00,08:00–22:00,08:00–22:00,08:00–22:00,08:00–22:00,08:00–22:00,08:00–22:00
197,"COSNITA, ST. PACII 62",47.121264,28.866985,08:00–22:00,08:00–22:00,08:00–22:00,08:00–22:00,08:00–22:00,08:00–22:00,08:00–22:00
198,"NISPORENI, STR. CHISINAULUI 2/E",47.080914,28.183114,08:00–23:00,08:00–23:00,08:00–23:00,08:00–23:00,08:00–23:00,08:00–23:00,08:00–23:00
199,"COM. SCULENI, SAT SCULENI, VAMA SCULENI",47.216735,29.163333,08:00–22:00,08:00–22:00,08:00–22:00,08:00–22:00,08:00–22:00,08:00–22:00,08:00–22:00
